City_ID,City,Country,Max Temp,Current Description,Lat,Lng,Hotel Name
0,Jamestown,US,72.72,overcast clouds,42.097,-79.2353,Hampton Inn & Suites Jamestown
1,Bethel,US,84.69,broken clouds,41.3712,-73.414,Courtyard by Marriott Danbury
4,Vila Velha,BR,73.35,clear sky,-20.3297,-40.2925,Quality Suites Vila Velha
5,Faanui,PF,79.43,scattered clouds,-16.4833,-151.75,Bora-Bora Pearl Beach Resort & Spa
6,Vaini,TO,78.96,broken clouds,-21.2,-175.2,Keleti Beach Resort
8,Banepa,NP,68.32,broken clouds,27.6298,85.5214,Dhulikhel Lodge Resort
12,Victoria,HK,82.45,light rain,22.2855,114.1577,Mini Hotel Central
13,Bathsheba,BB,83.01,scattered clouds,13.2167,-59.5167,Atlantis Hotel
17,Mangan,IN,76.08,overcast clouds,27.5167,88.5333,Hotel Mout View
20,Mahebourg,MU,68.25,scattered clouds,-20.4081,57.7,Shandrani Beachcomber Resort & Spa
22,Lasa,IT,63.34,overcast clouds,46.6166,10.7002,Pension Feldgärtenhof
24,Guerrero Negro,MX,78.89,clear sky,27.9769,-114.0611,"Casa Laguna, Bed & Breakfast"
25,Mackay,AU,66.04,broken clouds,-21.15,149.2,International Lodge Motel
27,Vung Tau,VN,79.14,overcast clouds,10.346,107.0843,Green hotel
29,Kavieng,PG,83.03,light rain,-2.5744,150.7967,Nusa Island Retreat
32,Yellowknife,CA,61.32,clear sky,62.456,-114.3525,The Explorer Hotel
33,San Quintin,MX,72.88,overcast clouds,30.4833,-115.95,Don Eddie's Sport Fishing Center
36,Poum,NC,74.64,clear sky,-20.2333,164.0167,Gîte kajeon
37,Sambava,MG,67.77,broken clouds,-14.2667,50.1667,Melrose
38,Yicheng,CN,77.72,overcast clouds,31.3705,119.8703,GreenTree Alliance Wuxi Yixing Jinyizhong Road Chengbei RT-Market Hotel
40,Saint-Philippe,RE,69.39,scattered clouds,-21.3585,55.7679,"Chambres d'hôte ""La Trinité"""
41,Isangel,VU,82.51,few clouds,-19.55,169.2667,Tanna Lodge
42,Yakeshi,CN,66.07,overcast clouds,49.2833,120.7333,Longhua Hotel
43,Atuona,PF,78.33,light rain,-9.8,-139.0333,Villa Enata
44,Pisco,PE,64.45,overcast clouds,-13.7,-76.2167,Hotel San Isidro Oficial
48,Avarua,CK,78.85,scattered clouds,-21.2078,-159.775,Paradise Inn
49,Bambous Virieux,MU,68.22,scattered clouds,-20.3428,57.7575,Casa Tia Villa
51,Georgetown,MY,80.89,few clouds,5.4112,100.3354,Cititel Penang
52,Okha,RU,64.17,clear sky,53.5739,142.9478,Империя
53,Puerto Ayora,EC,72.55,overcast clouds,-0.7393,-90.3518,Finch Bay Galapagos Hotel
57,Moultonborough,US,72.54,overcast clouds,43.7548,-71.3967,Olde Orchard Farm
58,Madang,PG,78.51,overcast clouds,-5.2246,145.7966,Comfort Inn Hotel
60,Kiunga,PG,74.05,overcast clouds,-6.1219,141.2906,Airport Lodge Kiunga
63,Hambantota,LK,75.54,broken clouds,6.1241,81.1185,Bungalow 63
64,Rikitea,PF,71.78,overcast clouds,-23.1203,-134.9692,People ThankYou
65,Leshan,CN,73.42,moderate rain,29.5623,103.7639,Leshan Haiyun International Youth Hostel
68,Vao,NC,72.46,clear sky,-22.6667,167.4833,Hotel Kou-Bugny
70,Ponta Delgada,PT,68.72,few clouds,37.7333,-25.6667,Vila Nova Hotel
72,Grand Gaube,MU,68.38,scattered clouds,-20.0064,57.6608,Veranda Paul et Virginie Hotel & Spa
73,Caravelas,BR,70.07,clear sky,-17.7125,-39.2481,Pousada dos Navegantes
77,Norman Wells,CA,77.77,broken clouds,65.282,-126.8329,Heritage Hotel
79,Svobodnyy,RU,69.71,few clouds,51.4,128.1333,Alekseevskij Hotel
80,Anchorage,US,81.75,clear sky,61.2181,-149.9003,Hotel Captain Cook
83,Itaituba,BR,84.22,broken clouds,-4.2761,-55.9836,Hotel Campos
84,Kapaa,US,84.18,moderate rain,22.0752,-159.319,Sheraton Kauai Coconut Beach Resort
88,Mitsamiouli,KM,77.59,overcast clouds,-11.3847,43.2844,Foyer ADM
89,Nakamura,JP,74.88,heavy intensity rain,32.9833,132.9333,Hotel Crown Hills Nakamura
91,Alofi,NU,76.93,few clouds,-19.0595,-169.9187,Taloa Heights
93,Palembang,ID,71.56,few clouds,-2.9167,104.7458,ASTON Palembang Hotel & Conference Center
94,Tuktoyaktuk,CA,60.93,scattered clouds,69.4541,-133.0374,End of The Road Ltd.
96,Hukvaldy,CZ,70.03,light rain,49.6238,18.2219,Motel Ibex
98,Khani,GE,62.17,few clouds,41.9563,42.9566,კურორტი ზეკარი/Resort Zekari
99,Nova Olimpia,BR,82.22,clear sky,-14.7972,-57.2881,Motel glamour
100,Alugan,PH,79.2,overcast clouds,12.2188,125.4808,JM Lodge
103,Erenhot,CN,70.03,clear sky,43.6475,111.9767,Erenhot Rurouni Youth Hostel
105,Pleven,BG,76.68,clear sky,43.4167,24.6167,Хотел Ростов
107,Butaritari,KI,84.06,few clouds,3.0707,172.7902,Isles Sunset Lodge
109,Nikolskoye,RU,63.01,clear sky,59.7035,30.7861,Tourist House - Sablino
112,Daru,PG,78.15,overcast clouds,-9.0763,143.2092,Daru Lodge
115,Khandyga,RU,66.92,broken clouds,62.6667,135.6,Apel'sin
116,Labuhan,ID,75.18,broken clouds,-6.8844,112.2051,PT PPI Lamongan Tambak C
118,Ushtobe,KZ,68.77,clear sky,45.2514,77.9838,"Gostinitsa ""Diyar"""
120,Sterlitamak,RU,63.12,clear sky,53.6246,55.9502,Gostinyy Dom Komfort
121,Thompson,CA,70.07,broken clouds,55.7435,-97.8558,Burntwood Hotel
124,Araguari,BR,71.42,few clouds,-18.6472,-48.1872,Big Executive Hotel - Araguari MG
125,Vallenar,CL,68.86,overcast clouds,-28.5708,-70.7581,Humacao Bed & Breakfast
127,Nantucket,US,79.14,fog,41.2835,-70.0995,Jared Coffin House
129,Karratha,AU,64.74,few clouds,-20.7377,116.8463,ibis Styles Karratha
135,Hasaki,JP,77.4,broken clouds,35.7333,140.8333,Hotel Sunrise Choshi
140,Bati,ET,68.56,overcast clouds,11.1833,40.0167,Adi 01 Kebele
143,Barras,BR,84.16,overcast clouds,-4.2444,-42.2944,Bl2
145,Miri,MY,76.1,overcast clouds,4.4148,114.0089,"Mega Hotel, Miri"
146,Kodiak,US,69.31,clear sky,57.79,-152.4072,Best Western Kodiak Inn And Convention Center
148,Touros,BR,74.3,scattered clouds,-5.1989,-35.4608,INN NEW HORIZON
151,Havre-Saint-Pierre,CA,62.58,scattered clouds,50.2334,-63.5986,Auberge Niapiskau
152,Dingle,PH,77.09,light rain,10.9995,122.6711,SEGAYA PROPERTY
153,De-Kastri,RU,71.24,broken clouds,51.4667,140.7833,Somon Hotel
158,Bull Savanna,JM,82.94,scattered clouds,17.8868,-77.5902,Big Red's
159,Rairangpur,IN,79.12,overcast clouds,22.2676,86.1751,Rairangpur Town PS
165,Iquitos,PE,80.64,broken clouds,-3.7481,-73.2472,Casa Morey Hotel & Restaurant
166,Erdenet,MN,62.6,overcast clouds,49.0333,104.0833,Erdenet hotel
167,Lagoa,PT,67.3,few clouds,39.05,-27.9833,Casa Das Faias
168,College,US,80.58,haze,64.8569,-147.8028,Pike's Waterfront Lodge
170,Cervo,ES,67.19,clear sky,43.6702,-7.4101,Hotel Spa Galatea
171,Asfi,MA,72.63,clear sky,32.2994,-9.2372,Hôtel Abda
172,San Cristobal,VE,80.78,scattered clouds,7.7669,-72.225,Posada Villaven C.A.
174,Angoche,MZ,67.03,clear sky,-16.2325,39.9086,Guest House HESADA
175,Kattivakkam,IN,80.69,overcast clouds,13.2167,80.3167,Euronova Freezer
176,Sitka,US,60.69,light rain,57.0531,-135.33,Westmark Sitka
178,Namibe,AO,66.33,clear sky,-15.1961,12.1522,Hotel Chik Chik Namibe
179,Sao Miguel Do Araguaia,BR,82.44,clear sky,-13.275,-50.1628,Hotel Executivo Palace
180,Aklavik,CA,82.31,scattered clouds,68.2191,-135.0107,Aklavik Inn
182,Ribeira Grande,PT,68.58,broken clouds,38.5167,-28.7,Quinta da Meia Eira
183,Ape,LV,63.72,overcast clouds,57.5393,26.6929,Jaunvosi
184,Maumere,ID,76.3,overcast clouds,-8.6199,122.2111,Sylvia Hotel
185,Juba,SS,69.93,light rain,4.8517,31.5825,ROYAL PALACE HOTEL - JUBA
187,Manokwari,ID,75.52,light rain,-0.8667,134.0833,Swiss Belhotel Manokwari
189,Ochamchira,GE,73.85,clear sky,42.7121,41.4721,Resort on Papaskiri 76
190,Zhicheng,CN,76.14,light rain,30.2956,111.5047,Wangjiang Building
192,Jinan,CN,77.77,light rain,36.6683,116.9972,Shandong Grand Tower Hotel
194,Ahipara,NZ,61.0,overcast clouds,-35.1667,173.1667,Ahipara Holiday Park
195,Marshall,US,80.78,scattered clouds,34.3834,-86.3333,Riverview Campground
199,Ryki,PL,73.35,overcast clouds,51.6257,21.9327,Pokoje Pracownicze Ryki
200,Carnarvon,AU,61.03,overcast clouds,-24.8667,113.6333,Hospitality Carnarvon
202,Boat Of Garten,GB,61.5,overcast clouds,57.2491,-3.759,The Boat Country Inn & Restaurant
207,Kouvola,FI,64.72,clear sky,60.8667,26.7,"Original Sokos Hotel Vaakuna, Kouvola"
208,Katherine,AU,64.72,scattered clouds,-14.4667,132.2667,Pine Tree Motel
209,Hamilton,US,84.42,scattered clouds,39.1834,-84.5333,Six Acres Bed & Breakfast
210,Muli,MV,81.91,broken clouds,2.9167,73.5667,Medhufushi Island Resort
211,Monrovia,LR,74.97,moderate rain,6.3005,-10.7969,Sunset Inn
216,Acari,PE,68.13,few clouds,-15.4311,-74.6158,HOSPEDAJE XIMENA
219,Port-Gentil,GA,75.36,broken clouds,-0.7193,8.7815,Fengshui Residence
221,Acarau,BR,79.32,few clouds,-2.8856,-40.12,castelo pizzaria
224,Olinda,BR,73.13,broken clouds,-8.0089,-34.8553,Hotel Albergue de Olinda
226,Dunhua,CN,70.38,broken clouds,43.3725,128.2425,Jinhao International Business Hotel
229,Zonguldak,TR,68.7,clear sky,41.25,31.8333,Süleyman Tez Ev
230,Huilong,CN,77.99,clear sky,31.8111,121.655,Hilton Garden Inn Qidong
234,Tautira,PF,84.0,light rain,-17.7333,-149.15,Pension Oaoa
235,Grand-Santi,GF,75.79,overcast clouds,4.25,-54.3833,Hotel La Villa Couacou
236,Kenai,US,77.02,clear sky,60.5544,-151.2583,Aspen Extended Stay Suites
237,Port Blair,IN,80.6,overcast clouds,11.6667,92.75,"Welcomhotel By ITC Hotels, Bay Island, Port Blair"
238,Dire Dawa,ET,69.4,overcast clouds,9.5931,41.8661,Samrat Hotel
239,Alibag,IN,78.87,light rain,18.6411,72.8792,"Radisson Blu Resort & Spa - Alibaug, India"
240,Yzeure,FR,63.21,clear sky,46.5644,3.355,Mercure Moulins Centre - Hôtel de Paris
246,Komsomolskiy,UZ,72.82,overcast clouds,40.4272,71.7189,Ikathouse
247,Peniche,PT,67.73,clear sky,39.3558,-9.3811,Hotel Star inn Peniche
248,Kaseda,JP,75.85,broken clouds,31.4167,130.3167,Sun Stay Kaseda
250,Arraial Do Cabo,BR,70.57,scattered clouds,-22.9661,-42.0278,Pousada Porto Praia
251,Celestun,MX,81.79,broken clouds,20.8667,-90.4,Posada Lilia
256,Abeche,TD,78.66,overcast clouds,13.8292,20.8324,Assaleh Hamdan Haroune
261,Barcelona,ES,76.44,few clouds,41.3888,2.159,Axel Hotel Barcelona
263,Broome,US,81.07,overcast clouds,42.2506,-75.833,Chenango Valley State Park
264,Akdepe,TM,78.8,clear sky,42.0551,59.3788,Мой дом
266,Ambulu,ID,70.83,scattered clouds,-8.345,113.6058,Hotel Ambulu Jember
267,Kavaratti,IN,82.26,overcast clouds,10.5669,72.642,Hotels in Lakshadweep Islands
269,Wuan,CN,75.74,few clouds,31.6836,112.0044,武镇大酒店
270,Alexandria,EG,79.23,clear sky,31.2156,29.9553,Royal Crown Hotel
273,Sola,VU,81.14,few clouds,-13.8833,167.55,Leumerus Bungalows
274,Ponta Do Sol,PT,71.71,clear sky,32.6667,-17.1,Hotel do Campo
276,Kongolo,CD,74.12,broken clouds,-5.3833,27.0,Mustafa Zengin Büyük Çerkes Düklüğü
278,Ottumwa,US,83.08,few clouds,41.02,-92.4113,Hampton Inn Ottumwa
279,Manjeshwar,IN,74.35,overcast clouds,12.7194,74.8861,SOOFINAGAR
280,Padang,ID,75.65,few clouds,-0.9492,100.3543,Mercure Padang
282,Le Port,RE,69.8,broken clouds,-20.9373,55.2919,KORBEY D'OR OUEST
286,Salalah,OM,77.09,light intensity drizzle,17.0151,54.0924,HAMDAN PLAZA HOTEL SALALAH
288,Hualmay,PE,66.33,few clouds,-11.0964,-77.6139,Hotel Villa Kitzia Huacho
289,Torbay,CA,68.77,overcast clouds,47.6666,-52.7314,Gallows Cove
291,Leh,IN,65.03,clear sky,34.1667,77.5833,Hotel Ladakh Greens
294,Jalu,LY,79.92,clear sky,29.0331,21.5482,صاحبة الفخامة
295,Katsuura,JP,84.11,scattered clouds,35.1333,140.3,Katsuura Hotel Mikazuki
297,Marystown,CA,60.4,overcast clouds,47.1666,-55.1483,Marystown Hotel & Convention Centre
302,Tongliao,CN,75.11,broken clouds,43.6125,122.2653,Meirujia Hotel
304,Kiomboi,TZ,60.26,overcast clouds,-4.2667,34.3667,Reyd's Executive Lodge
305,Souillac,MU,68.36,few clouds,-20.5167,57.5167,Shanti Maurice Resort & Spa
306,Kirakira,SB,82.87,scattered clouds,-10.4544,161.9205,SanBiz Lodge
307,Sabang,ID,82.04,broken clouds,5.8933,95.3214,Hotel Citra
309,Soyo,AO,71.74,broken clouds,-6.1349,12.3689,Hotel Mpampa
310,Maceio,BR,76.44,few clouds,-9.6658,-35.7353,Poutur Pousada
312,Jamsa,FI,63.32,clear sky,61.8642,25.19,Motel Patalahti
313,Axim,GH,76.3,broken clouds,4.8699,-2.2405,AXIM BEACH RESORT AND SPA
314,Chabahar,IR,83.53,broken clouds,25.2919,60.643,هتل گدروشیا
316,Lata,PT,65.05,clear sky,40.1629,-8.3327,Casa Maquia
318,Hithadhoo,MV,82.02,few clouds,-0.6,73.0833,Scoop Guest House
319,Shelburne,CA,74.23,overcast clouds,44.0787,-80.2041,The Retreat at the Farm
322,Ebebiyin,GQ,68.94,overcast clouds,2.1511,11.3353,Vallée-du-Ntem
324,Along,IN,74.64,overcast clouds,28.1667,94.7667,Hotel West
325,Itarema,BR,79.05,few clouds,-2.9248,-39.9167,"Sea Lounge! Bar, Club & Restaurant"
326,Pasni,PK,83.19,scattered clouds,25.2631,63.471,Kashmiri Hotal
329,Karaton,ID,77.95,broken clouds,-6.3424,106.1045,Parkir Mobil Wisata CAS Water Park
330,Dicabisagan,PH,79.23,overcast clouds,17.0818,122.4157,Nancy Montanes Bernardo
331,U Thong,TH,82.24,overcast clouds,14.3751,99.8923,คงทองทิพย์รีสอร์ท
332,Jambi,ID,72.12,clear sky,-1.6,103.6167,ASTON Jambi Hotel & Conference Center
333,Makamba,BI,61.05,broken clouds,-4.1348,29.804,Inanzerwe Hotel
334,Sibolga,ID,74.26,moderate rain,1.7427,98.7792,Hotel Syariah CN Darussalam
337,Preili,LV,65.77,scattered clouds,56.2944,26.7246,Guest House Magones
338,Lima,PE,61.14,overcast clouds,-12.0432,-77.0282,Gran Hotel Bolivar Lima
341,Shu,KZ,69.22,clear sky,43.5983,73.7614,Shyngyzkhan
344,Gat,IL,84.4,clear sky,31.61,34.7642,OlusHome
346,Clonakilty,IE,65.41,clear sky,51.6231,-8.8706,Inchydoney Island Lodge & Spa
347,Shingu,JP,78.91,overcast clouds,33.7333,135.9833,Shingu UI Hotel
350,Hovd,MN,60.87,few clouds,48.0056,91.6419,Hotel Khovd
351,Fare,PF,79.72,light rain,-16.7,-151.0167,Maitai Lapita Village Huahine
352,Corinto,GR,83.62,clear sky,37.9407,22.9573,Ephira Hotel
353,Haapsalu,EE,67.01,clear sky,58.9431,23.5414,Fra Mare Thalasso Spa
354,Porto Belo,BR,65.97,clear sky,-27.1578,-48.5531,Costa Verde Beach Hotel
357,Ciudad Bolivar,VE,84.07,scattered clouds,8.1222,-63.5497,Hotel Edi
358,Pytalovo,RU,67.5,broken clouds,57.0679,27.9138,Hotel Dubrava
360,Bacolod,PH,78.37,broken clouds,10.6667,122.95,Planta Hotel & Residences
364,Fairbanks,US,82.02,haze,64.8378,-147.7164,Westmark Fairbanks Hotel & Conference Center
368,Praya,CV,75.74,scattered clouds,14.9215,-23.5087,LT Aparthotel
369,North Bend,US,76.24,clear sky,43.4065,-124.2243,Red Lion Hotel Coos Bay
370,Kisangani,CD,71.33,overcast clouds,0.5167,25.2,Grand Ramela Hotel
372,Lugovaya,RU,73.67,clear sky,56.05,37.4833,Lut
375,Kalmar,SE,71.96,clear sky,56.6616,16.3616,First Hotel Witt
376,Fukue,JP,79.09,broken clouds,32.6881,128.8419,Goto Guesthouse Utojuku & SA Car Rental
378,Khimki,RU,73.98,clear sky,55.9017,37.4375,Kurkino Apart Hotel
385,Kendari,ID,71.98,overcast clouds,-3.945,122.4989,Hotel Wixel
390,Vila,PT,70.7,clear sky,42.0304,-8.1588,Hotel Castrum Villae by Walk Hotels
391,Xinglongshan,CN,75.38,clear sky,43.9561,125.4661,Fashion Hotel
392,Narwar,IN,83.17,light rain,25.65,77.9,हनुमान मन्दिर
399,Aguimes,ES,68.63,few clouds,27.9054,-15.4461,Hotel Villa de Aguimes
400,Flin Flon,CA,72.36,overcast clouds,54.7682,-101.865,Victoria Inn Flin Flon
402,Pandan,PH,81.01,overcast clouds,14.0453,124.1694,Bonifacio Lodge
408,Novo Aripuana,BR,81.73,scattered clouds,-5.1206,-60.3797,Hotel Ezequiel
410,Jining,CN,79.0,broken clouds,35.405,116.5814,Yunhe Star Hotel
411,Abha,SA,71.85,scattered clouds,18.2164,42.5053,Abha Hotel
412,Muisne,EC,76.28,overcast clouds,0.6,-80.0333,Quinta Samay
413,Shache,CN,78.22,scattered clouds,38.4167,77.2406,Delong Hotel
415,Oktyabrskiy,RU,63.09,scattered clouds,54.4815,53.471,Уязы-Тау гостиница
416,Naze,JP,79.72,moderate rain,28.3667,129.4833,奄美ポートタワーホテル
418,Kutum,SD,76.39,broken clouds,14.2,24.6667,Dibbo areaمنطقة دبو
419,Joao Camara,BR,72.64,broken clouds,-5.5375,-35.8197,Pousada Miguel Teixeira
420,Barcelos,PT,81.28,clear sky,41.5388,-8.6151,Hotel Do Terço
421,Valencia,ES,73.65,clear sky,39.3333,-0.8333,Masia El Pino
422,Mantua,IT,74.08,broken clouds,45.1667,10.7833,Hotel la Favorita
423,Tezu,IN,76.03,overcast clouds,27.9167,96.1667,Circuit House
424,Walsrode,DE,64.54,clear sky,52.8667,9.6,ANDERS Hotel Walsrode
427,Huarmey,PE,67.77,few clouds,-10.0681,-78.1522,Hotel Miramar
428,Shimoda,JP,79.41,clear sky,34.6667,138.95,Shimoda Tokyu Hotel
429,Karpathos,GR,76.78,clear sky,35.507,27.2132,Alex
431,Aden,YE,84.96,overcast clouds,12.7794,45.0367,Sama Emirate Hotel
437,Seguela,CI,70.32,overcast clouds,7.9611,-6.6731,Hotel le Carrefour
438,Millinocket,US,80.42,clear sky,45.6573,-68.7098,Katahdin Inn & Suites
440,Waingapu,ID,71.91,few clouds,-9.6567,120.2641,Pondok Wisata Elim
442,Pedasi,PA,80.87,overcast clouds,7.5333,-80.0333,Selina Pedasi
444,Benghazi,LY,79.12,clear sky,32.1167,20.0667,Tibesti Hotel
446,Bengkulu,ID,74.53,broken clouds,-3.8004,102.2655,Grage Hotel Bengkulu
447,Griffith,US,81.12,overcast clouds,41.5284,-87.4237,"Motel 6 Hammond, IN - Chicago Area"
448,Haines Junction,CA,74.43,clear sky,60.7522,-137.5108,Parkside Inn
450,Lorengau,PG,81.9,overcast clouds,-2.0226,147.2712,Lorengau Harbourside Hotel
451,Manicore,BR,83.88,broken clouds,-5.8092,-61.3003,Hotel Durval
454,Sao Joao Da Barra,BR,71.91,clear sky,-21.6403,-41.0511,Pousada Porto De Canoas
456,Alta Floresta,BR,84.69,few clouds,-9.8756,-56.0861,Floresta Amazonica Hotel
461,Bay City,US,81.16,clear sky,43.5945,-83.8889,DoubleTree by Hilton Hotel Bay City - Riverfront
462,Omboue,GA,72.14,broken clouds,-1.5746,9.2618,Hotel Olako
464,Prince George,CA,67.28,overcast clouds,53.9166,-122.753,Canadas Best Value Inn Prince George
465,Mindelo,CV,76.55,scattered clouds,16.8901,-24.9804,Hotel Gaudi
466,Muros,ES,73.15,clear sky,42.7762,-9.0603,Apartment Av. Castelao
468,Cedral,MX,83.98,few clouds,23.8,-100.7333,Hotel Rocio
469,Bonthe,SL,75.38,moderate rain,7.5264,-12.505,Bonthe Holiday Village
474,Saint-Joseph,RE,68.38,scattered clouds,-21.3667,55.6167,"""Plantation Bed and Breakfast"
476,Santa Isabel Do Rio Negro,BR,77.85,overcast clouds,-0.4139,-65.0192,Hotel GSA
477,Bubaque,GW,80.47,light rain,11.2833,-15.8333,"Casa Dora, Bubaque"
478,Luanda,AO,71.6,clear sky,-8.8368,13.2343,LANDU MARINEZA LUFUANDU TONI
479,Porto Walter,BR,79.72,overcast clouds,-8.2686,-72.7439,Secretaria de saúde
481,Madingou,CG,77.36,overcast clouds,-4.1536,13.55,HOTEL KIM ELISA
482,Hami,CN,77.65,scattered clouds,42.8,93.45,Laoyutang Resort
483,Luganville,VU,82.62,few clouds,-15.5333,167.1667,The Espiritu Hotel
484,Poso,ID,76.21,overcast clouds,-1.3959,120.7524,Hotel 77 Poso
487,Mocuba,MZ,63.68,overcast clouds,-16.8392,36.9856,Phama Lodge
489,Ternate,ID,78.48,overcast clouds,0.8,127.4,Grand Dafam Bela Ternate
491,San Jose De Las Lajas,CU,76.12,few clouds,22.9614,-82.1511,Hostal Spirit
493,Innisfail,AU,69.87,overcast clouds,-17.5333,146.0333,Moondarra Motel
496,Sao Filipe,CV,74.07,overcast clouds,14.8961,-24.4956,Hotel Xaguate
499,Loandjili,CG,71.47,broken clouds,-4.7561,11.8578,Résidence ARCHANGE
500,Roebourne,AU,64.62,few clouds,-20.7833,117.1333,Latitude20 Roebourne Village
501,Makurdi,NG,73.53,broken clouds,7.7411,8.5121,Doo Palace Hotel
502,Mandalgovi,MN,67.08,scattered clouds,45.7625,106.2708,В.Ганбат
503,Saint-Leu,RE,68.86,broken clouds,-21.15,55.2833,La Caz Oceane
506,Khorinsk,RU,62.19,few clouds,52.1657,109.7726,Uda
508,Livramento,BR,84.87,few clouds,-3.0254,-60.1803,Refúgio Samauma
509,Huanren,CN,71.55,overcast clouds,41.2647,125.3667,Dynasty Wunvshan Ice Chateau
510,Bilibino,RU,64.49,light rain,68.0546,166.4372,Gostinitsa Severyanka
512,San Lorenzo,PY,61.74,clear sky,-25.3333,-57.5333,Hotel del Sur
513,Maxcanu,MX,75.18,broken clouds,20.5833,-89.9833,Albergue Comunitario San Miguel Arcangel
516,Lethem,GY,77.9,overcast clouds,3.3803,-59.7968,Savannah Inn
518,Sajanan,TN,71.58,scattered clouds,37.0573,9.2426,Centre de culture du tabac sejenene
519,Sinnamary,GF,79.21,broken clouds,5.3833,-52.95,ALETHEIA Appartement Sinnamary
520,Changping,CN,76.51,heavy intensity rain,40.2186,116.2197,Huachang Hotel
524,Kuroishi,JP,82.58,few clouds,40.6389,140.5922,Takara Onsen Kuroishi
526,Prabumulih,ID,70.83,few clouds,-3.45,104.25,OYO 2722 Lemon Residence Prabumulih
527,Xique-Xique,BR,78.48,clear sky,-10.8218,-42.7263,Hotel J. Macedo
529,Bol,TD,80.28,overcast clouds,13.4586,14.7147,Hotel 3 Etoiles
530,Palmas Bellas,PA,82.35,overcast clouds,9.2319,-80.0867,Estación de Chagres
531,Dondo,MZ,65.71,broken clouds,-19.6094,34.7431,Arco Iris
532,Singaraja,ID,75.92,scattered clouds,-8.112,115.0882,Puri Bagus Lovina Resort
535,Kelo,TD,75.63,broken clouds,9.3086,15.8066,Plantation de Kelo
536,Los Llanos De Aridane,ES,67.75,clear sky,28.6585,-17.9182,Valle Aridane
539,Digapahandi,IN,80.96,overcast clouds,19.3667,84.5833,Tiffin Hotel
540,Sechura,PE,74.32,scattered clouds,-5.5569,-80.8222,Hospedaje Costa Bella
542,Liuhe,CN,71.42,few clouds,42.2401,125.7172,Grain Hostel
543,Nouadhibou,MR,67.62,few clouds,20.931,-17.0347,El Medina
545,Zhezkazgan,KZ,76.51,overcast clouds,47.8043,67.7144,Hotel Zumrat
550,Conde,BR,72.86,overcast clouds,-7.2597,-34.9075,Pousada Beija Flor
551,Zhangjiakou,CN,69.78,overcast clouds,40.81,114.8794,Shell Zhangjiakou City Qiaodong District Ginza Hotel
552,Honiara,SB,83.53,broken clouds,-9.4333,159.95,Heritage Park Hotel
553,Majene,ID,74.43,overcast clouds,-3.5403,118.9707,Kost Putri RABBANI
558,Kudahuvadhoo,MV,82.58,broken clouds,2.6708,72.8944,Niyama Private Islands Maldives
561,Alanya,TR,77.13,clear sky,36.5438,31.9998,Panorama Hotel
562,Garowe,SO,79.48,overcast clouds,8.4054,48.4845,Curubo Hotel
563,Sampit,ID,73.6,overcast clouds,-2.5333,112.95,Aquarius Boutique Hotel Sampit
564,Kalemie,CD,69.04,scattered clouds,-5.9475,29.1947,Mahobilali
565,Kalabo,ZM,64.36,overcast clouds,-14.97,22.6814,Sikakubete Guest House Kalabo Town Council
566,Santa Rosa Del Sur,CO,82.89,scattered clouds,7.9644,-74.0544,Hotel hoquidea del sur
567,Sompeta,IN,82.17,overcast clouds,18.9333,84.6,Netaji's Home
569,Hastings,GB,67.32,clear sky,50.8552,0.5729,Zanzibar Hotel
571,Trenggalek,ID,72.27,overcast clouds,-8.05,111.7167,OYO 2966 Hotel Atriaz
572,Xuzhou,CN,73.44,light rain,34.1805,117.1571,Thank Inn Chain Hotel Jiangsu xuzhou tongshan district Beijing south road
573,Nador,MA,73.65,clear sky,35.174,-2.9287,Hôtel La Giralda
575,Praia Da Vitoria,PT,70.75,scattered clouds,38.7333,-27.0667,Hotel Branco I
577,Seydi,TM,83.23,clear sky,39.4816,62.9137,Seydi oteli
579,Faya,SA,72.12,overcast clouds,18.3851,42.4509,مقبرة ال مجمل
580,Trebinje,BA,68.36,few clouds,42.7119,18.3442,Hotel Aćimović
581,Cap-Aux-Meules,CA,64.13,overcast clouds,47.3821,-61.8597,Auberge Madeli
582,Dossor,KZ,84.38,scattered clouds,47.5272,52.9811,"Gostinitsa Orpk ""Nauryz"""
583,Nerchinsk,RU,66.02,overcast clouds,51.9833,116.5833,Transbaikal N. Hotel
584,Bagdarin,RU,62.31,broken clouds,54.4333,113.6,Gostevoy Dom Terem
585,Cayenne,GF,82.44,clear sky,4.9333,-52.3333,Hôtel Le Dronmi
586,Pamekasan,ID,76.71,scattered clouds,-7.1568,113.4746,OYO 3027 Griya Temenggungan Syariah
588,Kupang,ID,70.38,few clouds,-10.1667,123.5833,Hotel On The Rock by Prasanthi
589,Port Hardy,CA,61.03,overcast clouds,50.6996,-127.4199,Airport Inn
590,Plyussa,RU,62.87,clear sky,58.4308,29.3654,Service hotel
593,Lokoja,NG,74.08,overcast clouds,7.8024,6.743,Hotel Charvid
595,Araguacu,BR,82.49,clear sky,-12.9306,-49.8264,Hotel Tocantins
596,Stuttgart,DE,69.4,few clouds,48.7823,9.177,Hotel Unger
597,Tampere,FI,63.0,clear sky,61.4991,23.7871,Holiday Club Tampere Spa
598,Sundsvall,SE,62.56,clear sky,62.3913,17.3063,Clarion Collection Hotel Grand Sundsvall
600,Ust-Nera,RU,64.96,scattered clouds,64.5667,143.2,Hotel Ust-Nera
601,Abancay,PE,68.86,few clouds,-13.6339,-72.8814,Siball Hotel
602,Ziarat,PK,69.98,scattered clouds,30.3823,67.7282,Pakiza Guest House
603,Basco,PH,82.65,broken clouds,20.4487,121.9702,Nathaniel's Lodge
604,Mananara,MG,65.12,few clouds,-16.1667,49.7667,Chez Roger
607,Rawlins,US,82.29,few clouds,41.7911,-107.2387,"Holiday Inn Express Rawlins, an IHG Hotel"
608,San Andres,CO,81.99,overcast clouds,12.5847,-81.7006,Hotel Arena Blanca
611,Sao Mateus,BR,71.19,clear sky,-18.7161,-39.8589,Hotel Rio Norte
612,Valparaiso,CL,67.64,clear sky,-33.0393,-71.6273,Hotel Ultramar
613,Brasileia,BR,84.49,broken clouds,-11.0161,-68.7481,Pousada Tobias
614,Natal,BR,74.05,broken clouds,-5.795,-35.2094,Villa Park Hotel | Natal
615,Korla,CN,78.49,overcast clouds,41.7597,86.1469,Gulisitan Hotel
616,Cockburn Town,TC,84.16,scattered clouds,21.4612,-71.1419,Osprey Beach Hotel
621,Meulaboh,ID,74.93,broken clouds,4.1363,96.1285,Kost Pria
622,Huntsville,US,82.65,light rain,34.7304,-86.5861,Embassy Suites by Hilton Huntsville Hotel & Spa
624,Plattsburgh,US,75.96,broken clouds,44.6995,-73.4529,La Quinta Inn & Suites by Wyndham Plattsburgh
626,Smithers,CA,60.75,light rain,54.7804,-127.1743,"Prestige Hudson Bay Lodge, Premier Collection"
627,Diffa,NE,73.06,overcast clouds,13.3154,12.6113,ProDAF/Diffa
628,Puerto Colombia,CO,84.29,broken clouds,10.9878,-74.9547,Hotel El Emigrante
629,Seoul,KR,78.28,scattered clouds,37.5683,126.9778,롯데호텔 서울
632,Asau,RO,69.28,clear sky,46.4333,26.4,Casa Mika Ciobanus
635,Inhambane,MZ,63.7,light rain,-23.865,35.3833,Oceano
639,Najran,SA,73.47,overcast clouds,17.4924,44.1277,محمد هادي ال فطيح
640,Ampanihy,MG,66.22,clear sky,-24.7,44.75,Angora Hotel
643,Paveh,IR,73.42,clear sky,35.0434,46.3565,اقامتگاه بوم‌گردی حسن ساعدی
646,Barguzin,RU,65.57,overcast clouds,53.6167,109.6167,"Gostevoy Dom S.barguzin ""Vizit"""
647,Afua,BR,77.11,heavy intensity rain,-0.1567,-50.3867,Hotel Dias
648,Pontianak,ID,76.98,mist,-0.0333,109.3333,Aston Pontianak Hotel & Convention Center
649,Bowen,AU,63.93,broken clouds,-20.0167,148.2333,Castle Motor Lodge Motel
650,Atasu,KZ,71.73,overcast clouds,48.6814,71.6433,Dostyk
651,Waddan,LY,80.24,clear sky,29.1614,16.139,محل الشريف محمد العايب
652,Boyolangu,ID,72.0,broken clouds,-8.1181,111.8935,Yos ega cv
655,Ofunato,JP,79.0,overcast clouds,39.0717,141.7167,Ofunato Hot Spring
656,Lensk,RU,70.63,scattered clouds,60.7253,114.9278,ТинОрС
657,Guiren,CN,73.74,broken clouds,33.6697,118.1889,Suyuan Hotel
659,Passos,BR,69.66,scattered clouds,-20.7189,-46.6097,AL
660,Mnogovershinnyy,RU,67.42,few clouds,53.9353,139.9242,Kvartsevaya Sopka
661,Auki,SB,82.56,broken clouds,-8.7676,160.7034,Auki Motel
662,Redmond,US,80.85,broken clouds,47.674,-122.1215,Seattle Marriott Redmond
663,Manta,EC,75.07,overcast clouds,-0.95,-80.7333,Balandra Hotel
665,Dharchula,IN,74.62,overcast clouds,29.85,80.5333,Mahara Hotel
667,Suzhou,CN,80.47,overcast clouds,31.3114,120.6181,Holiday Inn Jasmine Suzhou
668,Myshkin,RU,60.98,clear sky,57.7897,38.4545,Koshkin Dom
669,Buta,CD,69.75,overcast clouds,2.7858,24.73,HOTEL BISO NA BISO
670,Wanxian,CN,75.85,few clouds,30.8039,108.3897,7Days Inn Chongqing Shiqiaopu
671,Watsa,CD,64.49,overcast clouds,3.0372,29.5355,Hôtel Le Pacifique
672,Maarianhamina,AX,67.86,clear sky,60.0973,19.9348,Park Alandia Hotel
673,Belmonte,BR,73.9,clear sky,-15.8631,-38.8828,Pousada Monte Carmelo O Pão
674,Arica,CL,61.03,overcast clouds,-18.475,-70.3042,Hostal Jardin Del Sol
676,Pangnirtung,CA,60.37,broken clouds,66.1451,-65.7125,Kilabuk Lodge
678,Ayagoz,KZ,65.17,clear sky,47.9714,80.4392,Gostinitsa Nur
680,Merrill,US,83.8,clear sky,45.1805,-89.6835,Prairie Motel
681,Bela,IN,82.96,overcast clouds,25.9333,81.9833,Raj Bhawan
683,Lazaro Cardenas,MX,84.18,overcast clouds,17.9583,-102.2,quinta antigua
684,Saint-Francois,FR,68.18,clear sky,46.4154,3.9054,Manoir Du Bonheur
